{
"type": "FeatureCollection",
"crs": { "type": "name", "properties": { "name": "urn:ogc:def:crs:OGC:1.3:CRS84" } },
"features": [
{ "type": "Feature", "properties": { "id": "6480", "height": 6, "address": "5b Ahiu Street", "suburb": "Kauai", "island": "Kauai", "name": null, "area": 77, "distance": 1862.7756171906481, "owner": "0x08354f45a4be4b9aee45b2c6b096d8f5370a7e44", "owner_name": null, "label": null, "vol": 462, "max_vol": 847 }, "geometry": { "type": "Polygon", "coordinates": [ [ [ 14.43, -11.849899996 ], [ 14.43, -11.78 ], [ 14.54, -11.78 ], [ 14.54, -11.849899996 ], [ 14.43, -11.849899996 ] ] ] } },
{ "type": "Feature", "properties": { "id": "6479", "height": 8, "address": "3 Wekiu Drive", "suburb": "Kauai", "island": "Kauai", "name": null, "area": 182, "distance": 1911.8549944193962, "owner": "0xb27696c8f4815ffca1ea6ab6fbb3a05ef1302367", "owner_name": null, "label": null, "vol": 1456, "max_vol": 2366 }, "geometry": { "type": "Polygon", "coordinates": [ [ [ 14.8, -12.260099998 ], [ 14.8, -12.4 ], [ 14.67, -12.4 ], [ 14.67, -12.260099998 ], [ 14.8, -12.260099998 ] ] ] } },
{ "type": "Feature", "properties": { "id": "6478", "height": 11, "address": "2 Wekiu Drive", "suburb": "Kauai", "island": "Kauai", "name": null, "area": 65, "distance": 1905.6028341559368, "owner": "0x48b742b9d935fdaeade1a48cd7c5e4aec4360b0c", "owner_name": null, "label": null, "vol": 715, "max_vol": 1040 }, "geometry": { "type": "Polygon", "coordinates": [ [ [ 14.63, -12.4 ], [ 14.580100005, -12.4 ], [ 14.580100005, -12.27 ], [ 14.63, -12.27 ], [ 14.63, -12.4 ] ] ] } },
{ "type": "Feature", "properties": { "id": "6477", "height": 12, "address": "3 Leleaka Ave", "suburb": "Kauai", "island": "Kauai", "name": null, "area": 221, "distance": 1900.9918463791475, "owner": "0x9a1e8645dedec6d45e2058d031b1ca97f815bd2e", "owner_name": null, "label": "", "vol": 2652, "max_vol": 3757 }, "geometry": { "type": "Polygon", "coordinates": [ [ [ 14.8, -12.09 ], [ 14.8, -12.259900002 ], [ 14.67, -12.259900002 ], [ 14.67, -12.09 ], [ 14.8, -12.09 ] ] ] } },
{ "type": "Feature", "properties": { "id": "6476", "height": 15, "address": "29 Ahiu Street", "suburb": "Kauai", "island": "Kauai", "name": "SHOWDEER GALLERY", "area": 195, "distance": 1894.1430780170751, "owner": "0x6b261a3ec2405ae0e8e0546ad6906e65af8b8868", "owner_name": "Showdeer", "label": "gallery", "vol": 2925, "max_vol": 3900 }, "geometry": { "type": "Polygon", "coordinates": [ [ [ 14.579899995, -12.4 ], [ 14.43, -12.4 ], [ 14.43, -12.27 ], [ 14.579899995, -12.27 ], [ 14.579899995, -12.4 ] ] ] } },
{ "type": "Feature", "properties": { "id": "6475", "height": 16, "address": "3 Plantation Road", "suburb": "Kauai", "island": "Kauai", "name": null, "area": 204, "distance": 1782.5902391628492, "owner": "0x38c1aca7fdc06f5c126a6a229cb2b5873a7f6bff", "owner_name": null, "label": null, "vol": 3264, "max_vol": 4284 }, "geometry": { "type": "Polygon", "coordinates": [ [ [ 13.2, -12.1 ], [ 13.2, -11.980100003 ], [ 13.37, -11.980100003 ], [ 13.37, -12.1 ], [ 13.2, -12.1 ] ] ] } },
{ "type": "Feature", "properties": { "id": "6474", "height": 11, "address": "2 Leleaka Ave", "suburb": "Kauai", "island": "Kauai", "name": null, "area": 153, "distance": 1890.8237415359495, "owner": "0xddf2be9fc5f3fcea8aa87636a2127057f3c8a32f", "owner_name": "DreamBoat", "label": null, "vol": 1683, "max_vol": 2448 }, "geometry": { "type": "Polygon", "coordinates": [ [ [ 14.8, -11.88 ], [ 14.8, -12.05 ], [ 14.710100005, -12.05 ], [ 14.710100005, -11.88 ], [ 14.8, -11.88 ] ] ] } },
{ "type": "Feature", "properties": { "id": "6473", "height": 9, "address": "31 Ahiu Street", "suburb": "Kauai", "island": "Kauai", "name": null, "area": 144, "distance": 1881.5723795346826, "owner": "0x5ae9a64f9f5eb912662fe348f8eadf33f0a9de12", "owner_name": "Age_of_Chains", "label": null, "vol": 1296, "max_vol": 2016 }, "geometry": { "type": "Polygon", "coordinates": [ [ [ 14.39, -12.4 ], [ 14.23, -12.4 ], [ 14.23, -12.310099997 ], [ 14.39, -12.310099997 ], [ 14.39, -12.4 ] ] ] } },
{ "type": "Feature", "properties": { "id": "6472", "height": 8, "address": "7 Leleaka Ave", "suburb": "Kauai", "island": "Kauai", "name": null, "area": 154, "distance": 1889.4480785502419, "owner": "0xb5e8b254159892a3eca38d872621d9ca0c828cf6", "owner_name": null, "label": null, "vol": 1232, "max_vol": 2002 }, "geometry": { "type": "Polygon", "coordinates": [ [ [ 14.520100005, -12.09 ], [ 14.63, -12.09 ], [ 14.63, -12.23 ], [ 14.520100005, -12.23 ], [ 14.520100005, -12.09 ] ] ] } },
{ "type": "Feature", "properties": { "id": "6471", "height": 9, "address": "23 Punono Drive", "suburb": "Kauai", "island": "Kauai", "name": null, "area": 208, "distance": 1808.8883326507471, "owner": "0x38c1aca7fdc06f5c126a6a229cb2b5873a7f6bff", "owner_name": null, "label": null, "vol": 1872, "max_vol": 2912 }, "geometry": { "type": "Polygon", "coordinates": [ [ [ 13.41, -12.269900002 ], [ 13.41, -12.14 ], [ 13.57, -12.14 ], [ 13.57, -12.269900002 ], [ 13.41, -12.269900002 ] ] ] } },
{ "type": "Feature", "properties": { "id": "6470", "height": 8, "address": "2 Auhaele Drive", "suburb": "Kauai", "island": "Kauai", "name": null, "area": 54, "distance": 1884.556823647408, "owner": "0x958410d75bf7543ef6e4dd6134482be368a5712b", "owner_name": null, "label": null, "vol": 432, "max_vol": 702 }, "geometry": { "type": "Polygon", "coordinates": [ [ [ 14.8, -11.78 ], [ 14.8, -11.84 ], [ 14.710100005, -11.84 ], [ 14.710100005, -11.78 ], [ 14.8, -11.78 ] ] ] } },
{ "type": "Feature", "properties": { "id": "6469", "height": 8, "address": "2 Lanikuhana Street", "suburb": "Kauai", "island": "Kauai", "name": null, "area": 272, "distance": 1771.8701984061927, "owner": "0x38c1aca7fdc06f5c126a6a229cb2b5873a7f6bff", "owner_name": null, "label": null, "vol": 2176, "max_vol": 3536 }, "geometry": { "type": "Polygon", "coordinates": [ [ [ 13.2, -11.979899997 ], [ 13.2, -11.82 ], [ 13.37, -11.82 ], [ 13.37, -11.979899997 ], [ 13.2, -11.979899997 ] ] ] } },
{ "type": "Feature", "properties": { "id": "6468", "height": 8, "address": "5 Leleaka Ave", "suburb": "Kauai", "island": "Kauai", "name": null, "area": 221, "distance": 1880.7200748649436, "owner": "0xa991bbb00541a43d94e653de5042c3859a84da27", "owner_name": null, "label": "club", "vol": 1768, "max_vol": 2873 }, "geometry": { "type": "Polygon", "coordinates": [ [ [ 14.709899995, -12.05 ], [ 14.58, -12.05 ], [ 14.58, -11.88 ], [ 14.709899995, -11.88 ], [ 14.709899995, -12.05 ] ] ] } },
{ "type": "Feature", "properties": { "id": "6467", "height": 9, "address": "19 Ahiu Street", "suburb": "Kauai", "island": "Kauai", "name": "Anoncats Clubhouse", "area": 126, "distance": 1882.5328682389586, "owner": "0x1ce139b73dbc1d855e4b360856ac3885558fc5f8", "owner_name": "jseam.eth", "label": null, "vol": 1134, "max_vol": 1764 }, "geometry": { "type": "Polygon", "coordinates": [ [ [ 14.43, -12.23 ], [ 14.43, -12.09 ], [ 14.519899995, -12.09 ], [ 14.519899995, -12.23 ], [ 14.43, -12.23 ] ] ] } },
{ "type": "Feature", "properties": { "id": "6466", "height": 10, "address": "23 Ahiu Street", "suburb": "Kauai", "island": "Kauai", "name": null, "area": 176, "distance": 1874.387633335218, "owner": "0x5ae9a64f9f5eb912662fe348f8eadf33f0a9de12", "owner_name": "Age_of_Chains", "label": null, "vol": 1760, "max_vol": 2640 }, "geometry": { "type": "Polygon", "coordinates": [ [ [ 14.23, -12.309900003 ], [ 14.23, -12.2 ], [ 14.39, -12.2 ], [ 14.39, -12.309900003 ], [ 14.23, -12.309900003 ] ] ] } },
{ "type": "Feature", "properties": { "id": "6465", "height": 10, "address": "19 Punono Drive", "suburb": "Kauai", "island": "Kauai", "name": "MetaDao", "area": 78, "distance": 1823.0990099278756, "owner": "0xf023ff5c1fec2c3367d9811398d0ea80e1098a67", "owner_name": "moya", "label": "club", "vol": 780, "max_vol": 1170 }, "geometry": { "type": "Polygon", "coordinates": [ [ [ 13.61, -12.26 ], [ 13.61, -12.13 ], [ 13.669899995, -12.13 ], [ 13.669899995, -12.26 ], [ 13.61, -12.26 ] ] ] } },
{ "type": "Feature", "properties": { "id": "6464", "height": 9, "address": "3 Auhaele Drive", "suburb": "Kauai", "island": "Kauai", "name": "Origin Space", "area": 78, "distance": 1874.4193767671095, "owner": "0xbeb910ae193dc54411747ac236e67d221ff3f1d7", "owner_name": "AAAAAA", "label": null, "vol": 702, "max_vol": 1092 }, "geometry": { "type": "Polygon", "coordinates": [ [ [ 14.709899995, -11.84 ], [ 14.58, -11.84 ], [ 14.58, -11.78 ], [ 14.709899995, -11.78 ], [ 14.709899995, -11.84 ] ] ] } },
{ "type": "Feature", "properties": { "id": "6463", "height": 14, "address": "11 Hokuala Ave", "suburb": "Kauai", "island": "Kauai", "name": "CVMiniGames", "area": 72, "distance": 1819.9258226642098, "owner": "0x7b19b42564ad1c03625e8306cf20deea2f923a67", "owner_name": "karpatic.eth", "label": "game", "vol": 1008, "max_vol": 1368 }, "geometry": { "type": "Polygon", "coordinates": [ [ [ 14.519899995, -11.17 ], [ 14.43, -11.17 ], [ 14.43, -11.09 ], [ 14.519899995, -11.09 ], [ 14.519899995, -11.17 ] ] ] } },
{ "type": "Feature", "properties": { "id": "6462", "height": 13, "address": "17 Punono Drive", "suburb": "Kauai", "island": "Kauai", "name": null, "area": 240, "distance": 1796.1987364533886, "owner": "0x38c1aca7fdc06f5c126a6a229cb2b5873a7f6bff", "owner_name": null, "label": null, "vol": 3120, "max_vol": 4320 }, "geometry": { "type": "Polygon", "coordinates": [ [ [ 13.57, -11.950100003 ], [ 13.57, -12.1 ], [ 13.41, -12.1 ], [ 13.41, -11.950100003 ], [ 13.57, -11.950100003 ] ] ] } },
{ "type": "Feature", "properties": { "id": "6461", "height": 8, "address": "3 Welehu Terrace", "suburb": "Kauai", "island": "Kauai", "name": null, "area": 182, "distance": 1827.5900364833103, "owner": "0x25a4f7e109f7d2318f456d7ac94a1e4d87ca4196", "owner_name": null, "label": null, "vol": 1456, "max_vol": 2366 }, "geometry": { "type": "Polygon", "coordinates": [ [ [ 13.670100005, -12.13 ], [ 13.81, -12.13 ], [ 13.81, -12.26 ], [ 13.670100005, -12.26 ], [ 13.670100005, -12.13 ] ] ] } },
{ "type": "Feature", "properties": { "id": "6460", "height": 13, "address": "5 Auahi Road", "suburb": "Kauai", "island": "Kauai", "name": "CVMiniGames", "area": 190, "distance": 1847.7949020386432, "owner": "0x7b19b42564ad1c03625e8306cf20deea2f923a67", "owner_name": "karpatic.eth", "label": null, "vol": 2470, "max_vol": 3420 }, "geometry": { "type": "Polygon", "coordinates": [ [ [ 14.649899995, -11.58 ], [ 14.55, -11.58 ], [ 14.55, -11.39 ], [ 14.649899995, -11.39 ], [ 14.649899995, -11.58 ] ] ] } },
{ "type": "Feature", "properties": { "id": "6459", "height": 8, "address": "17 Ahiu Street", "suburb": "Kauai", "island": "Kauai", "name": null, "area": 144, "distance": 1867.076201313823, "owner": "0xf75341b90b8beb9f93c50facb92bc552f20797bb", "owner_name": "astrocryptids.eth", "label": null, "vol": 1152, "max_vol": 1872 }, "geometry": { "type": "Polygon", "coordinates": [ [ [ 14.270100005, -12.04 ], [ 14.39, -12.04 ], [ 14.39, -12.16 ], [ 14.270100005, -12.16 ], [ 14.270100005, -12.04 ] ] ] } },
{ "type": "Feature", "properties": { "id": "6458", "height": 8, "address": "11 Ahiu Street", "suburb": "Kauai", "island": "Kauai", "name": "BiknowWorldüéÑüéÖüéÅ", "area": 220, "distance": 1867.2165651169692, "owner": "0x7d36e06251e8376d7194147d9d26214566fac47d", "owner_name": "BiknowWorld", "label": "club", "vol": 1760, "max_vol": 2860 }, "geometry": { "type": "Polygon", "coordinates": [ [ [ 14.54, -12.05 ], [ 14.43, -12.05 ], [ 14.43, -11.850100004 ], [ 14.54, -11.850100004 ], [ 14.54, -12.05 ] ] ] } },
{ "type": "Feature", "properties": { "id": "6457", "height": 12, "address": "11 Punono Drive", "suburb": "Kauai", "island": "Kauai", "name": null, "area": 208, "distance": 1787.5695790653858, "owner": "0x38c1aca7fdc06f5c126a6a229cb2b5873a7f6bff", "owner_name": null, "label": null, "vol": 2496, "max_vol": 3536 }, "geometry": { "type": "Polygon", "coordinates": [ [ [ 13.41, -11.82 ], [ 13.57, -11.82 ], [ 13.57, -11.949899997 ], [ 13.41, -11.949899997 ], [ 13.41, -11.82 ] ] ] } },
{ "type": "Feature", "properties": { "id": "6456", "height": 10, "address": "61 Forrest Ave", "suburb": "Kauai", "island": "Kauai", "name": null, "area": 117, "distance": 1841.0850061852113, "owner": "0xa81b875826d7c232b3f675a0ec38e619b0af5538", "owner_name": null, "label": null, "vol": 1170, "max_vol": 1755 }, "geometry": { "type": "Polygon", "coordinates": [ [ [ 13.85, -12.219900001 ], [ 13.85, -12.13 ], [ 13.98, -12.13 ], [ 13.98, -12.219900001 ], [ 13.85, -12.219900001 ] ] ] } },
{ "type": "Feature", "properties": { "id": "6455", "height": 9, "address": "2 Keaoopua Terrace", "suburb": "Kauai", "island": "Kauai", "name": null, "area": 48, "distance": 1864.0131437304835, "owner": "0x0e95f0ec629a76c36109a779958950c3549f10b1", "owner_name": null, "label": null, "vol": 432, "max_vol": 672 }, "geometry": { "type": "Polygon", "coordinates": [ [ [ 14.23, -12.16 ], [ 14.23, -12.04 ], [ 14.269899995, -12.04 ], [ 14.269899995, -12.16 ], [ 14.23, -12.16 ] ] ] } },
{ "type": "Feature", "properties": { "id": "6454", "height": 8, "address": "19 Hokuala Ave", "suburb": "Kauai", "island": "Kauai", "name": "CVMiniGames", "area": 216, "distance": 1827.2629805257918, "owner": "0x7b19b42564ad1c03625e8306cf20deea2f923a67", "owner_name": "karpatic.eth", "label": "game", "vol": 1728, "max_vol": 2808 }, "geometry": { "type": "Polygon", "coordinates": [ [ [ 14.43, -11.479899995 ], [ 14.43, -11.21 ], [ 14.51, -11.21 ], [ 14.51, -11.479899995 ], [ 14.43, -11.479899995 ] ] ] } },
{ "type": "Feature", "properties": { "id": "6453", "height": 10, "address": "3 Ahiu Street", "suburb": "Kauai", "island": "Kauai", "name": null, "area": 228, "distance": 1852.6988422298966, "owner": "0x5d4d0f312de9d57338787308a25d2959978aadf6", "owner_name": "EliJayne", "label": null, "vol": 2280, "max_vol": 3420 }, "geometry": { "type": "Polygon", "coordinates": [ [ [ 14.619899995, -11.74 ], [ 14.43, -11.74 ], [ 14.43, -11.62 ], [ 14.619899995, -11.62 ], [ 14.619899995, -11.74 ] ] ] } },
{ "type": "Feature", "properties": { "id": "6452", "height": 8, "address": "5 Ahiu Street", "suburb": "Kauai", "island": "Kauai", "name": null, "area": 77, "distance": 1862.7756171906481, "owner": "0x3d0ef29f4ef7d62804e17fbd82284a662e7c9298", "owner_name": null, "label": null, "vol": 616, "max_vol": 1001 }, "geometry": { "type": "Polygon", "coordinates": [ [ [ 14.43, -11.849899996 ], [ 14.43, -11.78 ], [ 14.54, -11.78 ], [ 14.54, -11.849899996 ], [ 14.43, -11.849899996 ] ] ] } },
{ "type": "Feature", "properties": { "id": "6451", "height": 9, "address": "13 Punono Drive", "suburb": "Kauai", "island": "Kauai", "name": null, "area": 180, "distance": 1808.5358719140738, "owner": "0x8323ea41885680bc2dee1b879dff60f75b1a90a3", "owner_name": null, "label": null, "vol": 1620, "max_vol": 2520 }, "geometry": { "type": "Polygon", "coordinates": [ [ [ 13.61, -12.09 ], [ 13.61, -11.91 ], [ 13.709899995, -11.91 ], [ 13.709899995, -12.09 ], [ 13.61, -12.09 ] ] ] } },
{ "type": "Feature", "properties": { "id": "6450", "height": 10, "address": "5 Punono Drive", "suburb": "Kauai", "island": "Kauai", "name": "Chameleon Gallery", "area": 126, "distance": 1780.514920248693, "owner": "0x598ce158e94a87ebef2c6865d37b63dac4312c06", "owner_name": "cole", "label": "gallery", "vol": 1260, "max_vol": 1890 }, "geometry": { "type": "Polygon", "coordinates": [ [ [ 13.57, -11.690100005 ], [ 13.57, -11.78 ], [ 13.43, -11.78 ], [ 13.43, -11.690100005 ], [ 13.57, -11.690100005 ] ] ] } },
{ "type": "Feature", "properties": { "id": "6449", "height": 10, "address": "59 Forrest Ave", "suburb": "Kauai", "island": "Kauai", "name": null, "area": 204, "distance": 1848.0313850148757, "owner": "0xac9ad7f3797be989ca2cb474bf809be02deadcbc", "owner_name": "feizylaw.eth", "label": null, "vol": 2040, "max_vol": 3060 }, "geometry": { "type": "Polygon", "coordinates": [ [ [ 14.02, -12.1599 ], [ 14.02, -12.04 ], [ 14.19, -12.04 ], [ 14.19, -12.1599 ], [ 14.02, -12.1599 ] ] ] } },
{ "type": "Feature", "properties": { "id": "6448", "height": 8, "address": "13 Ahiu Street", "suburb": "Kauai", "island": "Kauai", "name": null, "area": 90, "distance": 1860.2555151146405, "owner": "0xac9ad7f3797be989ca2cb474bf809be02deadcbc", "owner_name": "feizylaw.eth", "label": null, "vol": 720, "max_vol": 1170 }, "geometry": { "type": "Polygon", "coordinates": [ [ [ 14.290100005, -11.91 ], [ 14.39, -11.91 ], [ 14.39, -12.0 ], [ 14.290100005, -12.0 ], [ 14.290100005, -11.91 ] ] ] } },
{ "type": "Feature", "properties": { "id": "6447", "height": 12, "address": "31 Hokuala Ave", "suburb": "Kauai", "island": "Kauai", "name": "CVMiniGames", "area": 80, "distance": 1843.9566050170449, "owner": "0x7b19b42564ad1c03625e8306cf20deea2f923a67", "owner_name": "karpatic.eth", "label": "beach", "vol": 960, "max_vol": 1360 }, "geometry": { "type": "Polygon", "coordinates": [ [ [ 14.51, -11.58 ], [ 14.43, -11.58 ], [ 14.43, -11.480100005 ], [ 14.51, -11.480100005 ], [ 14.51, -11.58 ] ] ] } },
{ "type": "Feature", "properties": { "id": "6446", "height": 9, "address": "2 Welehu Terrace", "suburb": "Kauai", "island": "Kauai", "name": "Baby Coby's Cenotaph", "area": 234, "distance": 1816.0807860491855, "owner": "0xc0beefeed699f6d6a08397fcbf8fbadf9f83eb5d", "owner_name": "BabyCoby", "label": "money", "vol": 2106, "max_vol": 3276 }, "geometry": { "type": "Polygon", "coordinates": [ [ [ 13.710100005, -11.91 ], [ 13.84, -11.91 ], [ 13.84, -12.09 ], [ 13.710100005, -12.09 ], [ 13.710100005, -11.91 ] ] ] } },
{ "type": "Feature", "properties": { "id": "6445", "height": 13, "address": "7 Ahiu Street", "suburb": "Kauai", "island": "Kauai", "name": "NoiseTree", "area": 35, "distance": 1856.8189576578018, "owner": "0xc446569e98466813d4a49cead6d9377215f6e244", "owner_name": "NoiseBot", "label": null, "vol": 455, "max_vol": 630 }, "geometry": { "type": "Polygon", "coordinates": [ [ [ 14.39, -11.82 ], [ 14.39, -11.87 ], [ 14.320100005, -11.87 ], [ 14.320100005, -11.82 ], [ 14.39, -11.82 ] ] ] } },
{ "type": "Feature", "properties": { "id": "6444", "height": 8, "address": "53 Forrest Ave", "suburb": "Kauai", "island": "Kauai", "name": null, "area": 140, "distance": 1831.5547769140703, "owner": "0xc446569e98466813d4a49cead6d9377215f6e244", "owner_name": "NoiseBot", "label": null, "vol": 1120, "max_vol": 1820 }, "geometry": { "type": "Polygon", "coordinates": [ [ [ 13.98, -11.950100003 ], [ 13.98, -12.09 ], [ 13.88, -12.09 ], [ 13.88, -11.950100003 ], [ 13.98, -11.950100003 ] ] ] } },
{ "type": "Feature", "properties": { "id": "6443", "height": 10, "address": "7 Punono Drive", "suburb": "Kauai", "island": "Kauai", "name": "Royal Eggs By MetaObjects Studio", "area": 108, "distance": 1800.0013888883529, "owner": "0x8cb50ec0c202e294afe6efc4bec0535cad578c93", "owner_name": null, "label": "gallery", "vol": 1080, "max_vol": 1620 }, "geometry": { "type": "Polygon", "coordinates": [ [ [ 13.61, -11.87 ], [ 13.61, -11.78 ], [ 13.729899995, -11.78 ], [ 13.729899995, -11.87 ], [ 13.61, -11.87 ] ] ] } },
{ "type": "Feature", "properties": { "id": "6442", "height": 8, "address": "47 Forrest Ave", "suburb": "Kauai", "island": "Kauai", "name": null, "area": 243, "distance": 1839.5882691515515, "owner": "0xb8427dcc33ec47332583879efd85c0de00583120", "owner_name": "planthero.eth", "label": null, "vol": 1944, "max_vol": 3159 }, "geometry": { "type": "Polygon", "coordinates": [ [ [ 14.02, -12.0 ], [ 14.02, -11.91 ], [ 14.289899995, -11.91 ], [ 14.289899995, -12.0 ], [ 14.02, -12.0 ] ] ] } },
{ "type": "Feature", "properties": { "id": "6441", "height": 13, "address": "2 Lanipaa Ave", "suburb": "Kauai", "island": "Kauai", "name": "Longbridge", "area": 99, "distance": 1809.099350908901, "owner": "0xe1e0c813293ddbf0fbfddb1025e8a35f160579c9", "owner_name": null, "label": "money", "vol": 1287, "max_vol": 1782 }, "geometry": { "type": "Polygon", "coordinates": [ [ [ 13.730100005, -11.78 ], [ 13.84, -11.78 ], [ 13.84, -11.87 ], [ 13.730100005, -11.87 ], [ 13.730100005, -11.78 ] ] ] } },
{ "type": "Feature", "properties": { "id": "6440", "height": 10, "address": "Kuahelani Green", "suburb": "Kauai", "island": "Kauai", "name": null, "area": 350, "distance": 1836.7542023907283, "owner": "0xa253d7cd38dc2d0b2e65ad42a7e4beb3c60a83ad", "owner_name": "crvox.eth", "label": null, "vol": 3500, "max_vol": 5250 }, "geometry": { "type": "Polygon", "coordinates": [ [ [ 14.8, -11.21 ], [ 14.8, -11.35 ], [ 14.55, -11.35 ], [ 14.55, -11.21 ], [ 14.8, -11.21 ] ] ] } }
]
}
